Action(SiteID=US|Country=US|Currency=USD|Version=585|CC=ISO-8859-1),OrderID,ItemID,TransactionID,ShippingStatus,ShippingCarrierUsed,ShipmentTrackingNumber
Status,,310267991815,666883690021,1,,
Status,,310909548358,666884925021,1,,
Status,,400148461431,535814909027,1,,
Status,207821105010,207821105010,,1,,
Status,207821830010,207821830010,,0,,
Status,,131593512367,1209494600003,1,,
Status,,311155906234,666894623021,0,,
Status,,311155906234,666894841021,1,,
Status,,140446139857,1250982760004,1,,
Status,,131739644119,1209499218003,1,,
Status,,311083324079,666898451021,1,,
Status,,381452469105,697727031025,1,,
Status,,310087279902,666900977021,1,,
Status,207823761010,207823761010,,0,,
Status,,130950393213,1209518051003,1,,
Status,,381444651435,697743964025,1,,
Status,,310818649077,666918594021,1,,
Status,,311325541428,666920204021,1,,
Status,,131467104731,1209534295003,0,,
Status,,400148456907,535849569027,1,,
Status,,381486651747,697752887025,1,,
Status,,310901655128,666928234021,1,,
Status,,380884947860,697762481025,1,,
Status,,311031556950,666945279021,1,,
Status,,310321874047,666946854021,0,,
Status,,311569208393,666955779021,1,,
Status,,310866959626,666959641021,1,,
Status,,140473888988,1251077662004,1,,
Status,,311155954233,666967135021,1,,
Status,,310087279251,666970727021,1,,
Status,,140437924758,1251096345004,1,,
Status,,311363595823,666976650021,1,,
Status,,131640542092,1209610154003,1,,
Status,,140446135958,1251103491004,1,,
Status,,310245540689,666979885021,1,,
Status,,131065343993,1209619405003,1,,
Status,,311222937355,666986398021,1,,
Status,,311524600912,666990200021,1,,
Status,,131230800230,1209627055003,1,,
Status,,381486651232,697822205025,1,,
Status,,400148909562,535919282027,1,,
Status,,120606396497,1614796871002,1,,
Status,,381474767318,697831925025,1,,
Status,,380789129897,697831310025,1,,
Status,,381086274251,697834842025,1,,
Status,,311413114490,667005731021,1,,
Status,,311464815737,667008864021,1,,
Status,,381095567059,697845778025,0,,
Status,,311524578551,667015651021,1,,
Status,,140446737939,1251160916004,1,,
Status,,311464817407,667020962021,1,,
Status,,381443975961,697854550025,1,,
Status,,131633529489,1209670496003,1,,
Status,,131095931476,1209675712003,1,,
Status,,381585438135,697870934025,1,,
Status,,131415499262,1209689227003,1,,
Status,,311217274414,667040809021,1,,
Status,,131720939641,1209702087003,1,,
Status,,400169764132,535970874027,1,,
Status,,310932459891,667048558021,1,,
Status,,131156430099,1209707446003,1,,
Status,,131615708527,1209709902003,1,,
Status,,381383810154,697892529025,1,,
Status,,380803584288,697894286025,1,,
Status,,131640540260,1209726514003,1,,
Status,,380932549576,697906239025,1,,
Status,,381569827733,697909708025,1,,
Status,,131723882866,1209734339003,1,,
Status,,380823334978,697912200025,0,,
Status,,311023672407,667075849021,1,,
Status,,131753403267,1209742122003,1,,
Status,,380963764751,697922062025,1,,
Status,207866519010,207866519010,,0,,
Status,,311007889543,667084378021,1,,
Status,,311437289187,667094350021,1,,
Status,,400148909820,536017020027,1,,
Status,,311520582066,667095778021,0,,
Status,,380803584590,697940100025,1,,
Status,,120559044169,1614966734002,1,,
Status,,310321871599,667100637021,0,,
Status,207871456010,207871456010,,1,,
Status,,131598998548,1209785065003,0,,
Status,,310997738580,667109834021,0,,
Status,,311023672183,667109871021,1,,
Status,,131717274290,1209792446003,1,,
Status,,400148916289,536035779027,1,,
Status,,140446146273,1251293630004,1,,
Status,,380963763097,697958217025,1,,
Status,,131575671177,1209794683003,1,,
Status,,381469467725,697958891025,1,,
Status,,131516642488,1209795392003,1,,
Status,,311520582066,667118497021,1,,
Status,,131103819669,1209799273003,0,,
Status,,131632307485,1209799542003,1,,
Status,,131754221790,1209799958003,1,,
Status,,311479552560,667122334021,1,,
Status,,310321865509,667126216021,1,,
Status,,380887922791,697973380025,1,,
Status,,131256603016,1209812570003,1,,
Status,,131133293706,1209814104003,1,,
Status,,381480890627,697978003025,1,,
Status,,381486628870,697979185025,1,,
Status,,311333298269,667140037021,1,,
Status,,311023673343,667145845021,1,,
Status,,131134151777,1209832095003,0,,
Status,,310393714659,667149058021,1,,
Status,,380815329156,697995006025,1,,
Status,,380886463500,697994983025,1,,
Status,,311431519672,667150653021,0,,
Status,,131707337875,1209838941003,1,,
Status,,140446748792,1251342411004,1,,
Status,,310321831168,667155031021,1,,
Status,,381486651492,698003982025,1,,
Status,,310917191505,667160837021,1,,
Status,,310221599017,667165050021,1,,
Status,,381471298250,698014250025,1,,
Status,,381458629208,698018911025,1,,
Status,,380851280868,698021178025,1,,
Status,,310245538854,667176176021,1,,
Status,,310796798788,667176343021,0,,
Status,,380542743534,698026784025,1,,
Status,,131754178858,1209880741003,0,,
Status,,140446135729,1251385221004,1,,
Status,207889055010,207889055010,,1,,
Status,,380789129636,698037893025,1,,
Status,,310918384790,667193547021,1,,
Status,,310250415821,667196750021,1,,
Status,,310269875754,667202687021,1,,
Status,,380805291684,698052527025,0,,
Status,,131656419433,1209912329003,1,,
Status,,381443986591,698055150025,1,,
Status,,311488800260,667209605021,1,,
Status,,131237941443,1209926356003,1,,
Status,,131656398836,1209928534003,1,,
Status,,400148912915,536129877027,1,,
Status,,380815329358,698066226025,1,,
Status,,310333610163,667222501021,1,,
Status,,131711963467,1209938513003,1,,
Status,,400148916289,536138314027,1,,
Status,,380887922820,698084156025,1,,
Status,,131088018008,1209953493003,1,,
Status,,131558229412,1209960495003,1,,
Status,,381437902233,698090790025,1,,
Status,,131140824804,1209962080003,1,,
Status,,311403866284,667243079021,1,,
Status,,311506361654,667243687021,1,,
Status,,131048123242,1209965756003,1,,
Status,,131144197766,1209973835003,1,,
Status,,310835626266,667250935021,1,,
Status,,310912143637,667252766021,1,,
Status,,311563411753,667258327021,1,,
Status,,381070148728,698110714025,1,,
Status,,381463720803,698113708025,1,,
Status,,381431000268,698115012025,1,,
Status,,310901607525,667269703021,1,,
Status,,381339576915,698122835025,1,,
Status,,130642485864,1210006652003,1,,
Status,,310918380647,667274399021,1,,
Status,,311566956747,667274455021,1,,
Status,207909953010,207909953010,,1,,
Status,,131713744105,1210018329003,1,,
Status,,380720739836,698135915025,1,,
Status,,310245539956,667289700021,1,,
Status,,140426119502,1251553429004,1,,
Status,,131753403388,1210038901003,1,,
Status,,140446143874,1251555978004,1,,
Status,,120801057906,1615303964002,1,,
Status,,381469467506,698154788025,1,,
Status,,310333592323,667305126021,1,,
Status,,311325546748,667305913021,1,,
Status,,131156424737,1210049945003,1,,
Status,,381039149302,698161930025,1,,
Status,,311222947358,667309372021,1,,
Status,,310796833998,667309544021,0,,
Status,,310814549464,667309779021,1,,
Status,,310321864996,667313435021,1,,
Status,,131593466099,1210061977003,0,,
Status,,381579243542,698170408025,1,,
Status,,131420876370,1210066395003,0,,
Status,,381100808824,698173082025,1,,
Status,,131713779967,1210073721003,0,,
Status,,311325541023,667325933021,1,,
Status,,131598998548,1210075562003,0,,
Status,,381393941341,698181471025,0,,
Status,,311436797552,667330033021,0,,
Status,,311539226684,667330690021,1,,
Status,,381345959124,698187974025,1,,
Status,,120801030210,1615372774002,1,,
Status,,380803584042,698197993025,0,,
Status,,131761580107,1210097298003,1,,
Status,,310796833998,667343179021,0,,
Status,,311189925953,667344131021,1,,
Status,,310245942617,667346195021,1,,
Status,,311363575150,667350099021,1,,
Status,,380789123464,698207886025,1,,
Status,,380895213985,698209107025,1,,
Status,,131724906989,1210111491003,1,,
Status,,130742358066,1210112112003,1,,
Status,,381383809823,698211814025,1,,
Status,,131621398429,1210114252003,1,,
Status,,381331605298,698217904025,1,,
Status,,311550238938,667360624021,1,,
Status,,131670546825,1210122130003,1,,
Status,,311155955877,667361074021,1,,
Status,,120310419993,1615409668002,1,,
Status,,131516642623,1210129317003,1,,
Status,,310748854790,667366657021,0,,
Status,,131656382054,1210130796003,1,,
Status,,311249091479,667367159021,1,,
Status,,131337088070,1210135549003,1,,
Status,,380721551301,698230480025,1,,
Status,,311436840950,667372949021,1,,
Status,,131237950600,1210141576003,1,,
Status,,131356498601,1210145333003,1,,
Status,,131575528783,1210147934003,1,,
Status,,131166898372,1210148749003,1,,
Status,,131516659391,1210151444003,1,,
Status,,131360419892,1210151541003,1,,
Status,,310245948371,667383816021,1,,
Status,,140446744522,1251683543004,1,,
Status,,381458629305,698249878025,1,,
Status,,310221296668,667392241021,1,,
Status,,380894538616,698255073025,1,,
Status,,311478267853,667394017021,1,,
Status,,311419502639,667395988021,1,,
Status,,131369261602,1210177083003,1,,
Status,,381464349788,698264445025,0,,
Status,,131178800549,1210188085003,1,,
Status,,131659555283,1210206174003,1,,
Status,,131622310708,1210206832003,0,,
Status,,120310420122,1615512011002,1,,
Status,,131065360340,1210215969003,1,,
Status,,131621179252,1210218755003,1,,
Status,,380884947978,698295549025,1,,
Status,,310245948215,667436865021,1,,
Status,,310729015981,667439130021,1,,
Status,,130679055165,1210232066003,1,,
Status,,131659554888,1210251153003,1,,
Status,,310833653142,667455769021,1,,
Status,,381345958651,698322678025,1,,
Status,,131481654506,1210264200003,1,,
Status,,310418528458,667464371021,1,,
Status,,381566251522,698333162025,1,,
Status,,131158757805,1210275639003,1,,
Status,,131168590675,1210282727003,1,,
Status,,131467107302,1210284399003,1,,
Status,,131644127217,1210284924003,1,,
Status,,310228804456,667481173021,1,,
Status,,140426118525,1251826731004,1,,
Status,,131091004602,1210295614003,1,,
Status,207949666010,207949666010,,1,,
Status,,311403872096,667490929021,1,,
Status,,131640543309,1210303826003,1,,
Status,,310924308043,667492868021,1,,
Status,,131600615165,1210313276003,1,,
Status,,311006139017,667505351021,1,,
Status,,311474800488,667510461021,1,,
Status,,131656395936,1210333805003,1,,
Status,,380834351198,698380056025,1,,
Status,,131633528384,1210336840003,1,,
Status,,131656419418,1210340671003,1,,
Status,,311403871793,667518889021,1,,
Status,,380701384715,698386457025,1,,
Status,,131598998548,1210344273003,0,,
Status,,311468956084,667524899021,1,,
Status,,311031554996,667529112021,1,,
Status,,311468959178,667530319021,1,,
Status,,131467104731,1210360031003,1,,
Status,,311477672752,667544392021,1,,
Status,,311539226700,667549987021,1,,
Status,,310838087568,667550931021,1,,
Status,,381530004320,698422114025,1,,
Status,,131645432125,1210385846003,1,,
Status,,131672988284,1210394764003,0,,
Status,,310245944238,667558844021,1,,
Status,,310939698518,667562792021,1,,
Status,,381039140168,698441503025,1,,
Status,,381086274024,698448393025,1,,
Status,,380767743978,698456331025,0,,
Status,,131392388042,1210429775003,1,,
Status,,131178800600,1210433642003,1,,
Status,,310688463364,667589182021,1,,
Status,,311520549796,667589956021,1,,
Status,,311023672338,667594921021,1,,
Status,,381452467506,698468587025,1,,
Status,,381475604370,698471213025,1,,
Status,,381205117827,698472328025,1,,
Status,,311488843257,667600209021,1,,
Status,,380963766815,698474961025,1,,
Status,,381452469400,698477083025,1,,
Status,,310221599060,667603582021,1,,
Status,,130973009327,1210456182003,1,,
Status,,131360419959,1210460619003,1,,
Status,,131731046612,1210462047003,1,,
Status,,381160751069,698484210025,1,,
Status,,381579243492,698486079025,1,,
Status,,130994976656,1210469079003,1,,
Status,,130642503382,1210476867003,1,,
Status,,381505302778,698498328025,1,,
Status,,131640541752,1210480275003,1,,
Status,,131671195379,1210480477003,1,,
Status,,400148911051,536517096027,1,,
Status,,131623910837,1210484904003,1,,
Status,,310930268072,667629329021,1,,
Status,,310796833998,667631093021,0,,
Status,,131376433061,1210490627003,1,,
Status,,381266019833,698508671025,1,,
Status,,311500664093,667634005021,1,,
Status,,310932459836,667638241021,1,,
Status,,381205113156,698515820025,1,,
Status,,131671221093,1210504821003,1,,
Status,,311534531803,667642161021,1,,
Status,,381345956961,698519037025,1,,
Status,,380894541067,698523946025,1,,
Status,,310376892541,667648134021,1,,
Status,,400148912900,536539014027,1,,
Status,,310221607174,667651860021,1,,
Status,,311469418050,667654855021,0,,
Status,,381565167329,698550176025,1,,
Status,,131405453068,1210559388003,0,,
Status,,381012249902,698565323025,1,,
Status,,380670081799,698572945025,1,,
Status,,310233073499,667696682021,1,,
Status,,310239935971,667727530021,1,,
Status,,381160751333,698611443025,1,,
Status,,120594451514,1616045583002,1,,
Status,,131687730996,1210646049003,1,,
Status,,140446749403,1252212133004,1,,
Status,,311488815246,667742914021,0,,
Status,,310901607525,667743649021,1,,
Status,,131427133121,1210652941003,1,,
Status,,131532096883,1210656568003,0,,
Status,,381443980458,698631195025,1,,
Status,,131731043681,1210661729003,1,,
Status,,381331592811,698652290025,1,,
Status,,140413902901,1252269089004,1,,
Status,,131121565312,1210701402003,1,,
Status,,311419502639,667783904021,1,,
Status,,131516653971,1210706802003,1,,
Status,,311511325016,667786626021,1,,
Status,,310796833998,667786773021,0,,
Status,,310221296968,667789431021,1,,
Status,,131381628162,1210716671003,1,,
Status,,131747505503,1210717351003,1,,
Status,,130937372260,1210719864003,1,,
Status,,310958945676,667797317021,1,,
Status,,120579096592,1616153055002,1,,
Status,,140446144818,1252320456004,1,,
Status,,131633535852,1210750990003,1,,
Status,,381560575493,698705697025,1,,
Status,,311007889543,667824070021,1,,
Status,,310759637023,667829237021,1,,
Status,,131380801704,1210768945003,1,,
Status,,381463720808,698720855025,1,,
Status,,400176933262,536712047027,0,,
Status,,130740689143,1210777767003,1,,
Status,,131753403387,1210776126003,1,,
Status,,131630118142,1210783206003,1,,
Status,,310930268193,667843950021,1,,
Status,,131633529625,1210785268003,1,,
Status,,311488750943,667861548021,1,,
Status,,311182768854,667869504021,1,,
Status,,131292220985,1210820261003,1,,
Status,,310796833998,667874954021,0,,
Status,,120310419908,1616296059002,0,,
Status,,310975064108,667889500021,1,,
Status,,311156047316,667893699021,1,,
Status,,131671195975,1210854407003,0,,
Status,,381458629346,698786721025,1,,
Status,,380815329246,698786896025,1,,
Status,,310418742521,667899254021,1,,
Status,,310726689486,667900521021,1,,
Status,,140450421644,1252446442004,1,,
Status,,131766834706,1210869375003,1,,
Status,,311459766914,667909493021,0,,
Status,,131628250517,1210872534003,1,,
Status,,381444740288,698799396025,1,,
Status,,311550269868,667915429021,1,,
Status,,310333597449,667916044021,1,,
Status,,131256603388,1210885200003,1,,
Status,,310221297820,667921915021,1,,
Status,,140473975140,1252469556004,1,,
Status,,381471381287,698812354025,0,,
Status,,311488815840,667923600021,0,,
Status,,131578958349,1210896220003,1,,
Status,,380918580882,698817290025,1,,
Status,,311155956717,667935502021,1,,
Status,,381266020699,698826454025,1,,
Status,,381094218104,698827046025,1,,
Status,,381566158987,698831889025,1,,
Status,,131678093576,1210920020003,1,,
Status,,131103819734,1210920835003,0,,
Status,,311325540805,667944779021,1,,
Status,,120587011825,1616392448002,1,,
Status,,311106902944,667951245021,1,,
Status,,131256598666,1210931741003,1,,
Status,,311031556298,667954280021,1,,
Status,,140270671174,1252516574004,1,,
Status,,381486628685,698846288025,1,,
Status,,400173201512,536817739027,1,,
Status,,311436841141,667956193021,1,,
Status,,131298698363,1210936443003,1,,
Status,208044842010,208044842010,,0,,
Status,,140476836407,1252520113004,1,,
Status,,311478272210,667969186021,0,,
Status,,381579243553,698861254025,1,,
Status,,131140722516,1210955140003,1,,
Status,,381443980586,698863338025,0,,
Status,,400148452995,536831486027,1,,
Status,,381443980586,698864285025,0,,
Status,,380884948030,698865872025,1,,
Status,,131748715445,1210960429003,1,,
Status,,310918384877,667975447021,1,,
Status,,131091004711,1210967883003,1,,
Status,,140473926901,1252555597004,1,,
Status,,131262474582,1210980907003,0,,
Status,,131262474582,1210981099003,0,,
Status,,131700241689,1210987364003,1,,
Status,,381486651580,698899013025,1,,
Status,,381518256708,698902084025,1,,
Status,,131633534643,1211014352003,1,,
Status,,381004820478,698906032025,1,,
Status,,380946924182,698908530025,1,,
Status,,311501187366,668024804021,1,,
Status,,311492161230,668028181021,1,,
Status,,310933932128,668034323021,0,,
Status,208069079010,208069079010,,0,,
Status,,381299661599,698926683025,1,,
Status,,311466215884,668044073021,1,,
Status,,381205112828,698935233025,1,,
Status,,311468959540,668045116021,1,,
Status,,381505280916,698937262025,1,,
Status,,131593512682,1211062667003,1,,
Status,,311502395170,668050687021,0,,
Status,,380946922223,698949004025,1,,
Status,,380721551971,698957261025,1,,
Status,,131237938190,1211089153003,1,,
Status,208077044010,208077044010,,0,,
Status,,381471362620,698959410025,1,,
Status,,311363593080,668067764021,1,,
Status,,310245538439,668069479021,1,,
Status,208078283010,208078283010,,1,,
Status,,400148910512,536925497027,1,,
Status,,130932579780,1211102258003,1,,
Status,,131667389286,1211105385003,1,,
Status,,311436797012,668082075021,0,,
Status,,311514365834,668093995021,1,,
Status,,311403863631,668095851021,1,,
Status,,130715328832,1211132719003,1,,
Status,,380805291661,698991789025,0,,
Status,,131257497585,1211137582003,1,,
Status,,380829033569,698995217025,1,,
Status,,131091004595,1211140816003,1,,
Status,,131292225418,1211144307003,1,,
Status,,310221294658,668106382021,1,,
Status,,310742856652,668111268021,1,,
Status,,131633534832,1211153266003,1,,
Status,,140474008992,1252750133004,1,,
Status,,381505281129,699011664025,1,,
Status,,400148458302,536969803027,1,,
Status,,311238767097,668119126021,1,,
Status,,131347256840,1211174642003,0,,
Status,,381100800469,699024090025,1,,
Status,,381362511838,699025234025,1,,
Status,,381413037414,699026172025,1,,
Status,,310814534468,668134152021,1,,
Status,,311006138990,668135606021,0,,
Status,,381486651379,699035442025,1,,
Status,,381443980423,699037393025,1,,
Status,,311363575150,668145474021,1,,
Status,,310321835323,668145663021,1,,
Status,,380946924736,699045816025,0,,
Status,,310333585098,668146056021,1,,
Status,,310324991251,668148407021,1,,
Status,,131761580210,1211207908003,1,,
Status,,381494497656,699049043025,0,,
Status,,131156424543,1211207735003,1,,
Status,,311413114470,668149642021,1,,
Status,,380542744788,699051899025,1,,
Status,,131689541471,1211213511003,1,,
Status,,131337119222,1211217510003,1,,
Status,,311007889896,668165375021,1,,
Status,,381443980533,699070009025,1,,
Status,,131684327217,1211238074003,1,,
Status,,400148904580,537023105027,1,,
Status,,131415542768,1211240827003,1,,
Status,,311535206922,668174200021,0,,
Status,,131431727033,1211242979003,0,,
Status,,380667757173,699078421025,0,,
Status,,380995019226,699078825025,1,,
Status,,311492717012,668176768021,0,,
Status,,400148460456,537029885027,1,,
Status,,140440633685,1252846508004,1,,
Status,,131739644034,1211251469003,1,,
Status,,310321833496,668181425021,1,,
Status,,381235517467,699085436025,1,,
Status,,310267747674,668184892021,1,,
Status,,310321872226,668186407021,0,,
Status,,381361616843,699090526025,0,,
Status,,140434681876,1252858322004,1,,
Status,,310691158452,668189670021,0,,
Status,208104338010,208104338010,,0,,
Status,,380612490607,699094264025,1,,
Status,,381591350907,699096222025,0,,
Status,,381591350963,699096626025,1,,
Status,,131205905497,1211267852003,1,,
Status,,310390035130,668194701021,0,,
Status,,381039162448,699099351025,1,,
Status,,131671220786,1211271401003,0,,
Status,,380803584049,699105567025,1,,
Status,208106725010,208106725010,,1,,
Status,,131065358894,1211283333003,1,,
Status,208108412010,208108412010,,1,,
Status,208108534010,208108534010,,0,,
Status,,131622211205,1211292357003,1,,
Status,,131656399489,1211294161003,0,,
Status,,131088017906,1211294398003,1,,
Status,,380767743950,699126761025,0,,
Status,,130943921792,1211301120003,1,,
Status,,381567254648,699128775025,1,,
Status,,380721558942,699130037025,1,,
Status,208110307010,208110307010,,1,,
Status,,131501140852,1211306803003,0,,
Status,,381549173654,699132412025,1,,
Status,,381488421988,699133731025,0,,
Status,,380876470826,699135251025,1,,
Status,,381092971426,699139197025,1,,
Status,,311474801979,668231799021,1,,
Status,,381092970267,699139780025,0,,
Status,,381331604813,699144709025,1,,
Status,,311553519900,668237108021,1,,
Status,,310729010785,668244153021,0,,
Status,,310245539855,668245708021,1,,
Status,,311488844074,668249047021,1,,
Status,,120854190989,1616895869002,1,,
Status,,311544421666,668252267021,1,,
Status,,131772070432,1211342897003,1,,
Status,,400148458022,537096951027,1,,
Status,,311437286857,668256441021,0,,
Status,,131654765282,1211350737003,1,,
Status,,310796833998,668262714021,0,,
Status,,381471300258,699175404025,1,,
Status,,380898858547,699177395025,1,,
Status,,131695299875,1211364343003,1,,
Status,,140446137262,1252968860004,1,,
Status,,131761580107,1211367609003,1,,
Status,,310245942775,668279698021,1,,
Status,,381471377340,699194786025,1,,
Status,,311023672668,668294457021,0,,
Status,,311520551266,668298823021,1,,
Status,,380969754609,699213941025,1,,
Status,,130642514834,1211415043003,1,,
Status,,381252513560,699216675025,0,,
Status,,120310420122,1617004407002,1,,
Status,,131337087673,1211429158003,1,,
Status,,310321836564,668313437021,1,,
Status,,310237504242,668313659021,1,,
Status,,140433578054,1253037993004,1,,
Status,,311436797858,668315226021,0,,
Status,,140270671174,1253040820004,1,,
Status,,381588297799,699228589025,1,,
Status,,310644647477,668319669021,1,,
Status,,130973012037,1211438142003,1,,
Status,,310321870158,668321941021,1,,
Status,,381066289731,699235549025,0,,
Status,,310321837900,668328150021,1,,
Status,,381471381449,699242985025,0,,
Status,,381566158987,699245466025,1,,
Status,,131633528273,1211457317003,1,,
Status,,310245948512,668334271021,1,,
Status,,381488697832,699250054025,0,,
Status,,381383809754,699250424025,1,,
Status,,120860448374,1617047210002,0,,
Status,,381116889857,699251580025,1,,
Status,,120854246524,1617047831002,1,,
Status,,310814528713,668338903021,1,,
Status,,381456761571,699253798025,1,,
Status,,131256598666,1211465485003,1,,
Status,,131347259258,1211476031003,1,,
Status,,381061410718,699266810025,1,,
Status,,311413114280,668357384021,1,,
Status,,120310423715,1617095641002,0,,
Status,,380663496553,699288850025,1,,
Status,,311514446476,668376523021,1,,
Status,,130908195398,1211516987003,0,,
Status,,310686232897,668380043021,1,,
Status,,131420876370,1211519320003,1,,
Status,,381566159144,699299089025,1,,
Status,,381323868061,699307214025,0,,
Status,,381125804197,699310239025,0,,
Status,,310245535426,668396556021,1,,
Status,,311488841625,668397255021,1,,
Status,,381571439171,699318414025,1,,
Status,,130943921562,1211554417003,1,,
Status,,311578794868,668413037021,0,,
Status,,311488841707,668414764021,1,,
Status,,400148918664,537254207027,1,,
Status,,131731046679,1211568746003,1,,
Status,,131170155926,1211568812003,0,,
Status,,131671220955,1211571092003,1,,
Status,,311578794296,668423057021,1,,
Status,,131091004617,1211577176003,1,,
Status,,381452468785,699345329025,1,,
Status,,131044791259,1211585660003,0,,
Status,,381012446385,699351437025,1,,
Status,,381505278394,699354276025,1,,
Status,,380876476217,699354684025,1,,
Status,,131461053757,1211594624003,1,,
Status,,311492133928,668439423021,1,,
Status,,311295651302,668441185021,1,,
Status,,310245946895,668442377021,1,,
Status,,310692690995,668442509021,1,,
Status,,131654765542,1211601462003,0,,
Status,,311093252339,668443368021,1,,
Status,,311584445051,668443755021,1,,
Status,,140473926901,1253220550004,1,,
Status,,120313001638,1617224744002,0,,
Status,,131753403387,1211605919003,0,,
Status,,381570533562,699366246025,0,,
Status,,381486651831,699370188025,1,,
Status,,131158757848,1211614148003,1,,
Status,,140426119965,1253230702004,0,,
Status,,131095931498,1211614896003,0,,
Status,,381443977204,699374233025,1,,
Status,,311468961192,668454807021,1,,
Status,,310926301788,668463827021,1,,
Status,,140332394326,1253247484004,1,,
Status,,130951048562,1211630573003,1,,
Status,,131376432485,1211630636003,1,,
Status,,131476620303,1211631157003,1,,
Status,,120860445508,1617257134002,1,,
Status,,310833653389,668468759021,1,,
Status,,131671220956,1211637030003,1,,
Status,,400148917095,537303673027,1,,
Status,,311488806959,668472361021,1,,
Status,,310245535346,668473888021,1,,
Status,,380884948217,699400341025,1,,
Status,,310378894361,668479782021,1,,
Status,,131415542944,1211649062003,1,,
Status,,310245945508,668481332021,1,,
Status,,381452467212,699407391025,1,,
Status,,381305585767,699409489025,1,,
Status,,311514447859,668485797021,1,,
Status,,311031557693,668487618021,1,,
Status,,381486651654,699414293025,1,,
Status,,131656399242,1211661741003,0,,
Status,,311550228600,668491142021,1,,
Status,,380899019730,699416043025,0,,
Status,,131656399242,1211663252003,1,,
Status,,310376896875,668492165021,1,,
Status,,131656399242,1211664615003,0,,
Status,,311321283176,668494882021,1,,
Status,,311464817009,668496741021,1,,
Status,,311514448329,668505104021,1,,
Status,,380812452157,699433192025,0,,
Status,,381299661599,699436450025,1,,
Status,,310224768811,668511914021,0,,
Status,208175299010,208175299010,,0,,
Status,,381580047637,699440744025,0,,
Status,,380877064163,699443687025,0,,
Status,,130741238582,1211700661003,1,,
Status,,120960593521,1617338693002,1,,
Status,,400148911426,537354038027,1,,
Status,,130642487390,1211713401003,0,,
Status,,310376889287,668529320021,0,,
Status,,311520581712,668532637021,0,,
Status,,310378895257,668540073021,0,,
Status,,381591742587,699476097025,1,,
Status,,380900410029,699477052025,0,,
Status,208186335010,208186335010,,0,,
Status,,131516642050,1211752282003,1,,
Status,,400172171161,537382105027,1,,
Status,,140446748792,1253380167004,1,,
Status,,400151931572,537384614027,0,,
Status,,381393941582,699494856025,1,,
Status,,380959559969,699496017025,1,,
Status,,381199122003,699501368025,0,,
Status,,381591742297,699502704025,0,,
Status,,400148456907,537401692027,1,,
Status,,381572083117,699508426025,1,,
Status,,310245946222,668581815021,1,,
Status,,380757328200,699508980025,1,,
Status,,381383810251,699509145025,1,,
Status,,310245948215,668583132021,1,,
Status,,400148905353,537410970027,1,,
Status,,310847035679,668588424021,0,,
Status,,131095931564,1211797292003,1,,
Status,,131180377048,1211803980003,0,,
Status,,310918384748,668594227021,1,,
Status,,311422402816,668596285021,1,,
Status,,381587003561,699525639025,1,,
Status,,310901607166,668597838021,1,,
Status,,131553325127,1211810442003,1,,
Status,,120854247343,1617477175002,1,,
Status,,380866491618,699528934025,1,,
Status,,311488750805,668601581021,1,,
Status,208197894010,208197894010,,1,,
Status,,310245940553,668609472021,1,,
Status,,310901607525,668613236021,1,,
Status,,310221294417,668613396021,1,,
Status,,131736739038,1211831645003,1,,
Status,,381513356119,699543171025,1,,
Status,,400148910591,537436443027,1,,
Status,,381145530410,699550987025,1,,
Status,,131593512446,1211844638003,1,,
Status,,381557808631,699554209025,0,,
Status,,380871367259,699564168025,1,,
Status,,380918580688,699564469025,1,,
Status,,381233915553,699567617025,1,,
Status,,130932579769,1211862899003,1,,
Status,,131510131131,1211863768003,1,,
Status,,311514454699,668639032021,1,,
Status,,381266025288,699572372025,1,,
Status,208207032010,208207032010,,1,,
Status,,310796799702,668646628021,1,,
Status,,400148916289,537470161027,1,,
Status,,131144197323,1211879977003,1,,
Status,,131467107424,1211882809003,1,,
Status,,381452469231,699585974025,1,,
Status,,381458629346,699593540025,1,,
Status,,131621186761,1211894365003,0,,
Status,,311325547098,668662789021,1,,
Status,,131337088497,1211898845003,1,,
Status,,310878613672,668669273021,1,,
Status,,311491345374,668669336021,1,,
Status,,380993337256,699607346025,1,,
Status,,381485835598,699611198025,1,,
Status,,380866491404,699611879025,0,,
Status,,381566166244,699614137025,1,,
Status,,310245538150,668684117021,1,,
Status,,311511324782,668685600021,1,,
Status,,120324854981,1617619215002,1,,
Status,,310692691096,668692178021,1,,
Status,,311515608195,668693242021,1,,
Status,,381565337514,699630787025,1,,
Status,,400148458977,537512509027,1,,
Status,,131731227022,1211941313003,1,,
Status,,381026022746,699633779025,0,,
Status,,131610414842,1211941728003,0,,
Status,,131687728259,1211943320003,1,,
Status,,381505298101,699635568025,1,,
Status,,310692691096,668701638021,1,,
Status,,381586669730,699641666025,1,,
Status,,381331598931,699642681025,0,,
Status,,311012680469,668707463021,1,,
Status,,140446735106,1253594989004,1,,
Status,,311403865439,668709484021,1,,
Status,,381552350795,699644874025,1,,
Status,208219125010,208219125010,,1,,
Status,,131190606817,1211959251003,1,,
Status,,130890812267,1211959786003,1,,
Status,,131467105058,1211960782003,0,,
Status,,131667460452,1211960997003,0,,
Status,,131644123890,1211961908003,1,,
Status,,311563341941,668718841021,1,,
Status,,381207453064,699654293025,1,,
Status,,381471380887,699654920025,0,,
Status,,131156429861,1211971565003,1,,
Status,,380898858494,699658435025,0,,
Status,,381431000214,699663244025,0,,
Status,,381393947100,699669565025,1,,
Status,,310748859971,668734069021,1,,
Status,,310087280050,668736332021,0,,
Status,,130679052661,1211991066003,1,,
Status,,131628250438,1211991831003,1,,
Status,,120578757329,1617692486002,1,,
Status,,131516655436,1211992062003,1,,
Status,,311531647171,668741538021,0,,
Status,,310324921451,668741697021,0,,
Status,,381443975961,699679211025,1,,
Status,,311566956999,668742710021,1,,
Status,,380721551301,699680586025,1,,
Status,,381463734245,699683083025,1,,
Status,,131179313684,1212004508003,0,,
Status,,380834550869,699686921025,1,,
Status,,381129368715,699692480025,1,,
Status,,381443975961,699692937025,1,,
Status,,131640543671,1212020072003,1,,
Status,,311436841266,668760197021,1,,
Status,,381579243381,699700002025,1,,
Status,,131104425985,1212022327003,1,,
Status,,131640543569,1212023265003,1,,
Status,,311501868570,668763154021,0,,
Status,,311358846845,668765139021,1,,
Status,,400148452256,537574438027,1,,
Status,,381505302971,699707116025,1,,
Status,,310729015634,668768853021,1,,
Status,,140270673516,1253681634004,1,,
Status,,311363575414,668779602021,0,,
Status,,131671220955,1212054080003,0,,
Status,,131467107508,1212064393003,0,,
Status,,131772070657,1212064466003,1,,
Status,,400172426095,537609785027,0,,
Status,,131249011325,1212088571003,1,,
Status,,380909135683,699758228025,1,,
Status,,311479472279,668819844021,1,,
Status,,310245941446,668820936021,1,,
Status,,120960468246,1617834595002,1,,
Status,,310333597449,668826098021,1,,
Status,,130646815950,1212113808003,1,,
Status,,311557033374,668828843021,0,,
Status,,381125797867,699772047025,1,,
Status,,380861599709,699775861025,1,,
Status,,381579243339,699776946025,0,,
Status,,380803584516,699777256025,1,,
Status,,380899019717,699781050025,0,,
Status,,131237938625,1212129687003,1,,
Status,,120310423938,1617860271002,1,,
Status,,310729015961,668841067021,1,,
Status,,400169738706,537644058027,1,,
Status,,131630131556,1212131429003,1,,
Status,,131566939955,1212134384003,1,,
Status,208250911010,208250911010,,1,,
Status,,310333593947,668853326021,1,,
Status,,381486628688,699800792025,1,,
Status,,381452467773,699801579025,1,,
Status,,381276187942,699801645025,1,,
Status,,310221320029,668858254021,1,,
Status,,381513355803,699803859025,1,,
Status,,381331599453,699805078025,1,,
Status,,380919706811,699806848025,1,,
Status,,310418729265,668864605021,0,,
Status,,131516653971,1212166531003,1,,
Status,,140446745040,1253820750004,1,,
Status,,131139106921,1212173213003,0,,
Status,,381125804222,699817952025,1,,
Status,,311501187388,668877683021,1,,
Status,,381110160584,699822738025,1,,
Status,,311474800181,668878823021,1,,
Status,,131405449076,1212181819003,0,,
Status,,311474799491,668879641021,1,,
Status,,131717274298,1212186084003,1,,
Status,,131467112552,1212187497003,1,,
Status,,380851280868,699830039025,1,,
Status,,311583847014,668888841021,1,,
Status,,131671221119,1212200813003,1,,
Status,,310321875882,668900864021,0,,
Status,,310321870216,668903594021,1,,
Status,,381475604487,699854538025,1,,
Status,,131768698867,1212218615003,1,,
Status,,131256603347,1212223516003,1,,
Status,,381514194946,699859659025,1,,
Status,,380963764580,699863214025,1,,
Status,,380856528012,699865879025,0,,
Status,,131593512717,1212231381003,1,,
Status,,120961082708,1617987864002,0,,
Status,,310267795043,668919742021,1,,
Status,,381587004042,699868537025,1,,
Status,,311218647037,668920303021,1,,
Status,,310709056689,668926463021,1,,
Status,,311105163350,668927000021,1,,
Status,,311363575448,668927128021,1,,
Status,,131256603212,1212246011003,1,,
Status,,310692691077,668928981021,1,,
Status,,381584347934,699882618025,0,,
Status,,311488751318,668933527021,1,,
Status,,311583849620,668934566021,0,,
Status,,381443975961,699884547025,1,,
Status,,380793323241,699884890025,1,,
Status,,311363592873,668935947021,0,,
Status,,120336668658,1618015957002,1,,
Status,,140473901020,1253913476004,0,,
Status,,131772073634,1212257551003,0,,
Status,,400169733720,537735965027,0,,
Status,,311550284046,668939192021,0,,
Status,,311583849767,668939838021,0,,
Status,,311532265868,668939856021,1,,
Status,,311019581635,668941447021,1,,
Status,,120960484145,1618032005002,0,,
Status,,131633528807,1212272564003,1,,
Status,,131516661819,1212274533003,1,,
Status,,310921037336,668955064021,1,,
Status,,120587004740,1618049464002,1,,
Status,,381594951226,699907665025,1,,
Status,,381090755414,699908725025,1,,
Status,,310087276646,668962515021,1,,
Status,,311413119591,668962718021,0,,
Status,,381579243449,699921053025,1,,
Status,208274689010,208274689010,,1,,
Status,208274730010,208274730010,,1,,
Status,,381486651119,699922475025,1,,
Status,,381579243542,699924398025,1,,
Status,,311031557343,668972039021,1,,
Status,,400148904580,537771376027,1,,
Status,,130994976898,1212311625003,1,,
Status,,311182768856,668976953021,1,,
Status,,311514446137,668977040021,1,,
Status,,131748866007,1212312275003,1,,
Status,,310245945044,668979092021,1,,
Status,,310245939689,668981072021,1,,
Status,,310228795796,668981863021,1,,
Status,,311325542806,668986201021,1,,
Status,,310245941446,668986286021,1,,
Status,,380872004431,699941406025,1,,
Status,,380771633395,699943390025,1,,
Status,,311586014217,668992872021,1,,
Status,,310087276826,668995996021,0,,
Status,,131633533013,1212341099003,1,,
Status,,310228796662,669001638021,1,,
Status,,140434677524,1254007934004,1,,
Status,,131671220636,1212346031003,0,,
Status,,310321833061,669007054021,0,,
Status,,310222617176,669009241021,0,,
Status,,400148913832,537811108027,0,,
Status,,131069264584,1212378129003,0,,
Status,,311455397290,669035463021,1,,
Status,,310221594256,669035690021,1,,
Status,,310238055362,669039736021,1,,
Status,,131048123786,1212397614003,1,,
Status,,310393715307,669046611021,0,,
Status,,140283110550,1254075755004,1,,
Status,,131695299220,1212433687003,1,,
Status,,381488420457,700028314025,0,,
Status,,311424775923,669070205021,0,,
Status,,310224764491,669073808021,1,,
Status,,381383809996,700032777025,1,,
Status,,381125800258,700034581025,1,,
Status,,310918380601,669077548021,1,,
Status,,311583846818,669078369021,1,,
Status,,311370130243,669078767021,1,,
Status,,380862405839,700042676025,1,,
Status,,140446141081,1254124660004,1,,
Status,,131360412603,1212460086003,0,,
Status,,131256603449,1212470791003,1,,
Status,,131774638654,1212473061003,1,,
Status,,131731038224,1212478025003,1,,
Status,,140270674538,1254149081004,1,,
Status,,120961082689,1618289625002,1,,
Status,,131091004738,1212481766003,1,,
Status,,380963762932,700064312025,1,,
Status,,381039042639,700065422025,1,,
Status,,310333611409,669108271021,1,,
Status,,131731028784,1212490450003,1,,
Status,,380876476211,700070669025,1,,
Status,,311083323840,669109578021,1,,
Status,,140446740921,1254162057004,1,,
Status,,310245536065,669110062021,1,,
Status,,120858945403,1618307951002,1,,
Status,,381265983668,700073513025,1,,
Status,,381463734264,700079027025,1,,
Status,,380964654199,700079978025,1,,
Status,,381584553388,700083068025,1,,
Status,,131263498743,1212507231003,0,,
Status,,310924308240,669129679021,1,,
Status,,130642479319,1212520745003,1,,
Status,,381465333139,700096771025,1,,
Status,,311135829296,669134766021,0,,
Status,,311399368961,669134815021,1,,
Status,,311436840906,669135225021,1,,
Status,,400172169320,537923776027,1,,
Status,,311249090977,669140128021,1,,
Status,,131317339758,1212532760003,1,,
Status,,310729005701,669142060021,0,,
Status,,310245947264,669142784021,1,,
Status,,131156429794,1212540615003,1,,
Status,,381592562866,700114433025,1,,
Status,,310930267843,669150765021,1,,
Status,,131769023306,1212551398003,0,,
Status,,311093253166,669153487021,1,,
Status,,131235764139,1212555615003,0,,
Status,,131671220929,1212558416003,1,,
Status,208317568010,208317568010,,1,,
Status,,310087281728,669171072021,1,,
Status,,131380801704,1212577043003,1,,
Status,,131256603200,1212579797003,1,,
Status,,311413114298,669175643021,1,,
Status,,140446746898,1254262383004,1,,
Status,,381486651724,700149175025,1,,
Status,,381505259253,700151292025,1,,
Status,,131671220839,1212599172003,1,,
Status,,311031556819,669189257021,1,,
Status,,311229175527,669192644021,1,,
Status,,311468959033,669195958021,0,,
Status,,380721551658,700165159025,1,,
Status,,381594951323,700168905025,0,,
Status,,120960466999,1618465913002,1,,
Status,,131622210963,1212621581003,1,,
Status,,140446738338,1254299770004,1,,
Status,,120771834225,1618473387002,1,,
Status,,131237949910,1212624467003,1,,
Status,,311156048187,669206762021,1,,
Status,,310321837108,669211517021,1,,
Status,,400148907925,537994740027,1,,
Status,,310245941446,669215369021,1,,
Status,,381205118163,700189311025,1,,
Status,,310221293162,669223872021,1,,
Status,,381525398240,700197869025,1,,
Status,,311023672451,669227002021,1,,
Status,,381266020753,700204930025,1,,
Status,,380845543859,700209782025,1,,
Status,,381471362641,700211204025,1,,
Status,,311436841266,669241542021,1,,
Status,,311436841035,669241622021,1,,
Status,,140413702752,1254351423004,1,,
Status,,310702411026,669242197021,1,,
Status,,310932459690,669242394021,1,,
Status,,400148457131,538023285027,1,,
Status,,311202365473,669245715021,1,,
Status,,311156033486,669245177021,1,,
Status,,380789113496,700221817025,1,,
Status,,131237948127,1212680239003,1,,
Status,,310245535874,669248526021,1,,
Status,,131048123513,1212683171003,1,,
Status,,381449534460,700225092025,1,,
Status,,310376888797,669254540021,1,,
Status,,380789134719,700233666025,1,,
Status,,310333609551,669261787021,1,,
Status,,381579243343,700237169025,0,,
Status,,380812452378,700238934025,0,,
Status,,381331590299,700238857025,1,,
Status,,381443981092,700245594025,1,,
Status,,311574120538,669274165021,1,,
Status,,311407713890,669274845021,1,,
Status,,381205115813,700257192025,1,,
Status,,131772070334,1212727440003,1,,
Status,,310851050508,669292767021,0,,
Status,,131221195126,1212743947003,1,,
Status,,140478531211,1254436713004,0,,
Status,,311156038183,669317246021,1,,
Status,,381266004075,700293798025,1,,
Status,,311161891953,669318205021,1,,
Status,,310818648885,669318725021,1,,
Status,,140446141081,1254487955004,0,,
Status,,310909548550,669334537021,1,,
Status,,310271054602,669345624021,0,,
Status,,311468955943,669347706021,1,,
Status,,381549173105,700331017025,1,,
Status,,310221326655,669363566021,1,,
Status,,380834351198,700346499025,1,,
Status,,131640543290,1212850084003,1,,
Status,,131106853334,1212853723003,1,,
Status,,311436797065,669384831021,0,,
Status,,311412572698,669385364021,1,,
Status,,120606398385,1618783255002,1,,
Status,,381452224132,700370866025,1,,
Status,,131656382555,1212876520003,1,,
Status,,311155953801,669393435021,1,,
Status,,311212052158,669399413021,1,,
Status,,131671221320,1212886973003,1,,
Status,,381471359011,700384180025,1,,
Status,,381492949124,700384289025,1,,
Status,,131386504085,1212892423003,1,,
Status,,380958835985,700392010025,1,,
Status,,120894084953,1618815198002,1,,
Status,,311474800781,669414320021,1,,
Status,,131298706447,1212907972003,1,,
Status,,120310422958,1618835490002,1,,
Status,,311501170874,669419383021,1,,
Status,208366474010,208366474010,,1,,
Status,,380886463500,700411644025,1,,
Status,,310221594365,669429371021,1,,
Status,,381594951226,700414676025,1,,
Status,,310245939689,669429758021,1,,
Status,,311585979421,669431191021,1,,
Status,,380891805742,700421678025,1,,
Status,,131621177311,1212938673003,0,,
Status,,310221595627,669438530021,1,,
Status,,400176932060,538203706027,1,,
Status,,131434320887,1212943873003,1,,
Status,,310267751699,669444157021,1,,
Status,,381505302971,700438609025,1,,
Status,,140446737292,1254658602004,1,,
Status,,131623909856,1212958407003,1,,
Status,,311019581397,669455828021,1,,
Status,,311083322259,669465483021,1,,
Status,208373258010,208373258010,,1,,
Status,,131687627116,1212976885003,1,,
Status,,131505296965,1212977496003,0,,
Status,208373961010,208373961010,,0,,
Status,,310245537270,669471815021,1,,
Status,,131162718501,1212984842003,1,,
Status,,381566158953,700462223025,1,,
Status,,311419502639,669476381021,1,,
Status,,130932579855,1212988957003,1,,
Status,,131467105058,1212991300003,1,,
Status,,120310420206,1618943246002,1,,
Status,,131431774289,1212999987003,1,,
Status,,381100800267,700475102025,1,,
Status,,381435989045,700476330025,1,,
Status,,311575446622,669487517021,1,,
Status,,381443983909,700483312025,1,,
Status,,381039140168,700484709025,1,,
Status,,311574878048,669495694021,1,,
Status,,400148461531,538255277027,1,,
Status,,131774634679,1213018710003,1,,
Status,,311557033554,669501349021,1,,
Status,,310221321258,669504181021,1,,
Status,,140446742171,1254734881004,1,,
Status,,310950605130,669506642021,1,,
Status,,131516642031,1213029256003,1,,
Status,,131274995779,1213034297003,1,,
Status,,131290405300,1213043594003,0,,
Status,,140446138602,1254755375004,1,,
Status,,131078279216,1213048082003,1,,
Status,208383249010,208383249010,,1,,
Status,,130646816423,1213076995003,0,,
Status,,310321840175,669559220021,1,,
Status,,310245535341,669563470021,1,,
Status,,381014222481,700568424025,1,,
Status,,310245939185,669573272021,1,,
Status,,131700241787,1213128036003,1,,
Status,,131079518827,1213129614003,1,,
Status,,131144254710,1213131569003,1,,
Status,,380812481408,700586252025,1,,
Status,,140446750230,1254869502004,1,,
Status,,310221295164,669598621021,1,,
Status,,131689725873,1213171667003,1,,
Status,,380933371674,700612768025,1,,
Status,,381452469104,700618148025,1,,
Status,,140413898035,1254912049004,1,,
Status,,381583318494,700627529025,1,,
Status,,310692691077,669630333021,1,,
Status,,380807909673,700631555025,1,,
Status,208406538010,208406538010,,1,,
Status,,381300010267,700638441025,0,,
Status,,130715360594,1213220413003,1,,
Status,,130994010479,1213221077003,0,,
Status,,400148914554,538390311027,1,,
Status,,381384996571,700646411025,1,,
Status,,131755193844,1213226779003,1,,
Status,,380946924986,700648550025,1,,
Status,,400148909404,538400809027,1,,
Status,,140446746763,1254977840004,1,,
Status,,131082842660,1213255629003,1,,
Status,,131126085811,1213257936003,0,,
Status,,400148459047,538414302027,1,,
Status,,381549189921,700676368025,1,,
Status,,380876476332,700681373025,1,,
Status,,381471380984,700686505025,0,,
Status,,400148908063,538432240027,1,,
Status,,131687730996,1213290890003,1,,
Status,,131254820440,1213295535003,1,,
Status,,311479472517,669707832021,1,,
Status,,381587920224,700712897025,1,,
Status,,311007890045,669709919021,1,,
Status,,311535207047,669710716021,0,,
Status,,311466216304,669712793021,0,,
Status,,131712836889,1213323238003,1,,
Status,,381591737323,700723488025,1,,
Status,,131524903475,1213339694003,1,,
Status,,310918384968,669731881021,1,,
Status,,310324919402,669736032021,1,,
Status,,311413117529,669746238021,1,,
Status,,381305590265,700754901025,1,,
Status,208437449010,208437449010,,1,,
Status,,381513334088,700756825025,1,,
Status,,131633532159,1213365557003,0,,
Status,,131677012644,1213365771003,1,,
Status,,311031558602,669750457021,1,,
Status,,310333596434,669751890021,1,,
Status,,131656419403,1213376110003,1,,
Status,,131139106303,1213386002003,1,,
Status,,311455397712,669765654021,1,,
Status,,120771834225,1619425449002,1,,
Status,,310418566683,669766825021,1,,
Status,,130740686780,1213388530003,1,,
Status,,381549178909,700777016025,1,,
Status,,131256602785,1213391429003,1,,
Status,,131091004756,1213392253003,1,,
Status,,381039149272,700780468025,1,,
Status,,381583318377,700781519025,1,,
Status,,310692690995,669775599021,1,,
Status,,131687741250,1213405913003,1,,
Status,,381049992962,700793389025,1,,
Status,,120960591619,1619455750002,1,,
Status,,381246250473,700801550025,1,,
Status,,131254820443,1213422714003,1,,
Status,,310841143885,669794305021,1,,
Status,,311042389523,669795008021,1,,
Status,,311578794868,669795214021,0,,
Status,,311474800176,669799142021,1,,
Status,,381458629273,700811104025,0,,
Status,,131640543613,1213433793003,1,,
Status,,381266003392,700814395025,1,,
Status,,131516642495,1213434022003,1,,
Status,,310748859936,669806194021,1,,
Status,,310862242589,669807459021,1,,
Status,,400169786104,538538904027,1,,
Status,,381443986681,700820192025,1,,
Status,,311501171034,669817584021,1,,
Status,,380623679721,700830407025,1,,
Status,,311412359586,669817881021,1,,
Status,,380946924165,700831032025,1,,
Status,,381591742840,700831213025,1,,
Status,,381266021354,700832646025,1,,
Status,,131731028428,1213458494003,1,,
Status,,310321843144,669822254021,1,,
Status,,381095557891,700845556025,1,,
Status,,381579243383,700847034025,1,,
Status,,381443980429,700854760025,1,,
Status,,131250899115,1213481756003,1,,
Status,,311189926114,669856047021,1,,
Status,,140446145052,1255258446004,1,,
Status,,131337139647,1213544114003,1,,
Status,,131566940033,1213546546003,1,,
Status,,131256602789,1213548446003,1,,
Status,,310726692224,669887710021,1,,
Status,,310333595301,669888028021,1,,
Status,,130994977161,1213558278003,1,,
Status,,381596355893,700918579025,0,,
Status,,310333592731,669905551021,1,,
Status,,381383810173,700924723025,1,,
Status,,381449492872,700924814025,1,,
Status,,131341632654,1213577527003,1,,
Status,,380815329156,700927335025,1,,
Status,,400148912394,538637322027,1,,
Status,,381299661599,700930757025,1,,
Status,,381498480498,700932482025,0,,
Status,,311083323885,669915373021,0,,
Status,,310321864873,669917497021,1,,
Status,208487050010,208487050010,,1,,
Status,,131381632879,1213595021003,1,,
Status,,381452467684,700946496025,1,,
Status,,381486651654,700947772025,1,,
Status,,380803584103,700948581025,0,,
Status,,311497597227,669929846021,1,,
Status,,131432383253,1213625752003,1,,
Status,,380957101981,700969395025,1,,
Status,,140446135958,1255386643004,1,,
Status,,131291208578,1213635454003,1,,
Status,,380941112121,700973165025,1,,
Status,,400148909724,538677619027,1,,
Status,,140446742286,1255395883004,1,,
Status,,131593512017,1213650122003,1,,
Status,,310901655075,669963502021,1,,
Status,,130590806773,1213657447003,1,,
Status,,311403860787,669966558021,0,,
Status,,381513334410,700993935025,0,,
Status,,310841143802,669970060021,0,,
Status,,311370130286,669971563021,1,,
Status,,120934794599,1619771054002,0,,
Status,,131623986988,1213670812003,0,,
Status,,380904970194,701009288025,1,,
Status,,381331598931,701010661025,1,,
Status,,131248040580,1213682287003,1,,
Status,,400148461909,538712910027,1,,
Status,,131069264459,1213692256003,0,,
Status,,131048123559,1213693974003,1,,
Status,,311436841311,669994803021,1,,
Status,,381100808901,701022177025,1,,
Status,,380958835677,701023048025,1,,
Status,,310944336479,669996723021,1,,
Status,,381471380984,701032905025,0,,
Status,,311194216753,670009475021,1,,
Status,,310321831063,670012393021,0,,
Status,,310378894026,670013213021,1,,
Status,,310267747674,670017806021,1,,
Status,,131144197766,1213730252003,0,,
Status,,131633532209,1213730494003,0,,
Status,,140446145171,1255491824004,1,,
Status,,381014255598,701053480025,1,,
Status,,131144197766,1213739766003,1,,
Status,,311007889817,670028980021,1,,
Status,,381345958294,701058876025,1,,
Status,,131623911827,1213745201003,0,,
Status,,140446737292,1255505868004,1,,
Status,,400148915457,538761438027,1,,
Status,,380959557280,701070158025,1,,
Status,,381579243511,701071782025,1,,
Status,,310245540788,670044278021,1,,
Status,,381449492773,701075738025,1,,
Status,,130932579769,1213766448003,1,,
Status,,381443986836,701080209025,1,,
Status,,311156013106,670051878021,0,,
Status,,131566939446,1213779960003,1,,
Status,,131249011011,1213780197003,1,,
Status,,131768007102,1213781916003,0,,
Status,,311238766344,670061572021,0,,
Status,,381486651654,701094439025,1,,
Status,,381486651654,701097055025,1,,
Status,,310267768342,670063794021,1,,
Status,,310245943093,670068269021,1,,
Status,,380876475995,701102956025,1,,
Status,,380789123461,701104115025,1,,
Status,,381498550137,701105693025,1,,
Status,208521039010,208521039010,,1,,
Status,,310702411026,670076550021,1,,
Status,,131593512126,1213804736003,1,,
Status,,381592561673,701111854025,1,,
Status,,131248008232,1213805132003,1,,
Status,,311586791302,670077637021,0,,
Status,,131048123255,1213808796003,1,,
Status,,131376432763,1213813439003,1,,
Status,,380812465396,701122396025,1,,
Status,,311258557695,670088659021,1,,
Status,,311524600456,670091522021,1,,
Status,,311550271035,670093122021,1,,
Status,,310894736281,670096366021,0,,
Status,,131643392904,1213830091003,0,,
Status,,310245944186,670097462021,1,,
Status,,381443974655,701135022025,1,,
Status,,131566939574,1213832019003,1,,
Status,,131134151777,1213832541003,0,,
Status,,120587006227,1619969693002,1,,
Status,,380918580882,701136727025,1,,
Status,,311506362166,670099859021,0,,
Status,,120579092411,1619972571002,0,,
Status,,131565482418,1213840061003,0,,
Status,,400153557467,538831131027,1,,
Status,,311363575323,670108333021,1,,
Status,,131195221922,1213845124003,1,,
Status,,131640542092,1213849493003,1,,
Status,,131593512187,1213852655003,1,,
Status,,310838093884,670114336021,1,,
Status,,380815329246,701154563025,1,,
Status,,310890081792,670116485021,0,,
Status,,311363575256,670118009021,1,,
Status,,120606396351,1620010124002,1,,
Status,,381486651654,701167224025,0,,
Status,208534734010,208534734010,,1,,
Status,,131643392904,1213901720003,1,,
Status,,380964653785,701191808025,1,,
Status,,381100800048,701202521025,1,,
Status,,131762206722,1213922559003,0,,
Status,,131065353361,1213923601003,1,,
Status,,381579243289,701212164025,1,,
Status,,131717274485,1213937171003,1,,
Status,,131168590667,1213941724003,1,,
Status,,311170037754,670181118021,1,,
Status,,311155953801,670183658021,1,,
Status,,310221606185,670184553021,1,,
Status,,311478268403,670185488021,1,,
Status,208550965010,208550965010,,0,,
Status,,131140722159,1213951444003,1,,
Status,,400148457092,538912835027,1,,
Status,,131292220590,1213958898003,0,,
Status,,140446145710,1255739215004,1,,
Status,,381383809823,701238295025,1,,
Status,,311461673844,670200642021,1,,
Status,,310245941446,670202147021,1,,
Status,,310726692417,670202457021,1,,
Status,,120603052603,1620145876002,1,,
Status,,131628252643,1213974430003,1,,
Status,,131671195445,1213976614003,1,,
Status,,310918381041,670206579021,1,,
Status,,311555250938,670207917021,1,,
Status,,311031557676,670210060021,1,,
Status,,130973011681,1213984221003,1,,
Status,,131762207353,1213984574003,1,,
Status,,131677012644,1213984980003,1,,
Status,,381443974655,701255662025,1,,
Status,,131638202369,1213989345003,1,,
Status,,381536378125,701263082025,1,,
Status,,381476504415,701263545025,0,,
Status,,381086274251,701265471025,1,,
Status,,310228799833,670224889021,1,,
Status,,311468955139,670228800021,1,,
Status,,381007580237,701273682025,1,,
Status,,381505298101,701273667025,1,,
Status,,381039156172,701275844025,1,,
Status,,311472699823,670233137021,1,,
Status,,380963767029,701283310025,1,,
Status,,310934668228,670238133021,0,,
Status,,310221295347,670239949021,1,,
Status,,381331605114,701287053025,0,,
Status,,311403871984,670244428021,1,,
Status,,131774634679,1214027576003,1,,
Status,,381413037414,701294384025,0,,
Status,,130786737267,1214033568003,0,,
Status,,131772701430,1214054976003,1,,
Status,,120797813537,1620250415002,1,,
Status,,130908195398,1214057284003,1,,
Status,,131069271497,1214061741003,1,,
Status,,140446140875,1255845869004,1,,
Status,,381026022663,701321380025,0,,
Status,,310221296531,670273610021,1,,
Status,208569801010,208569801010,,1,,
Status,,311403865546,670274214021,1,,
Status,,131633529489,1214066016003,1,,
Status,,381587920581,701326464025,1,,
Status,,381258240463,701327343025,1,,
Status,,381571264034,701327831025,1,,
Status,,380793330348,701331244025,0,,
Status,,381592561443,701333198025,1,,
Status,,310245939427,670288353021,1,,
Status,,131235764130,1214085478003,1,,
Status,,310245538331,670290963021,1,,
Status,,131419288173,1214087819003,1,,
Status,,131649392834,1214090299003,1,,
Status,,120961090213,1620293313002,1,,
Status,,310271044575,670296991021,0,,
Status,,311461674591,670300628021,1,,
Status,,311584444963,670302354021,1,,
Status,,131640543627,1214104556003,1,,
Status,,381100800394,701356611025,1,,
Status,,311550385777,670307796021,0,,
Status,,381513334088,701360068025,1,,
Status,,381570534152,701362243025,1,,
Status,,310221597686,670311312021,1,,
Status,,310245535341,670311758021,1,,
Status,,381443987036,701364240025,1,,
Status,,310087279797,670312718021,0,,
Status,,311580353269,670314323021,0,,
Status,,131731038177,1214119756003,1,,
Status,,131195221871,1214119946003,1,,
Status,,311514447932,670316207021,1,,
Status,,140413899824,1255918585004,1,,
Status,,311403866549,670323716021,1,,
Status,,310333612325,670326467021,1,,
Status,,310932459891,670327534021,1,,
Status,,131717273666,1214140258003,1,,
Status,,311546592838,670331239021,1,,
Status,,140350868788,1255929607004,1,,
Status,,131656378427,1214141606003,1,,
Status,,131539039769,1214142826003,1,,
Status,,120854224704,1620355375002,1,,
Status,,140446744522,1255932220004,1,,
Status,,131099929947,1214146261003,1,,
Status,,131156424966,1214146370003,1,,
Status,,381554801646,701392148025,1,,
Status,,131558220365,1214149264003,1,,
Status,,381493790613,701393475025,0,,
Status,,131104426083,1214151698003,1,,
Status,,400148460456,539062126027,1,,
Status,,131156430030,1214159425003,1,,
Status,,311031558164,670350886021,1,,
Status,,131711127477,1214166630003,1,,
Status,,130994977078,1214167445003,1,,
Status,,310221296624,670352986021,1,,
Status,,131157053437,1214168499003,0,,
Status,,310796833834,670355444021,1,,
Status,,131044791233,1214174724003,0,,
Status,,310221321567,670358201021,1,,
Status,,311436797665,670359392021,1,,
Status,,140446743627,1255967677004,1,,
Status,,131542449970,1214177369003,1,,
Status,,400169764132,539079983027,1,,
Status,,400148917169,539081922027,1,,
Status,,311525396102,670366549021,1,,
Status,,131256603348,1214190415003,1,,
Status,,380815329221,701428490025,0,,
Status,,381535829822,701435284025,1,,
Status,,380861615276,701441901025,1,,
Status,,381458913213,701449743025,1,,
Status,,131640340442,1214222502003,1,,
Status,,311469418050,670406705021,1,,
Status,,380995022314,701467208025,1,,
Status,208601778010,208601778010,,0,,
Status,,380851831865,701479479025,1,,
Status,,311554758577,670422460021,1,,
Status,,380998678989,701486166025,0,,
Status,,310318151912,670425539021,1,,
Status,,310909548530,670425745021,1,,
Status,,381440260747,701490459025,0,,
Status,,311031557676,670429502021,1,,
Status,,310221593932,670431217021,1,,
Status,,381579939787,701496830025,1,,
Status,,120604266338,1620532581002,1,,
Status,,131516642192,1214286382003,1,,
Status,,311550224743,670452861021,1,,
Status,,310321872658,670455737021,1,,
Status,,311535206933,670457047021,0,,
Status,,311535206922,670459307021,0,,
Status,,380824331901,701526543025,1,,
Status,,310245536134,670463086021,1,,
Status,,131079422519,1214316374003,1,,
Status,,131774634597,1214316614003,1,,
Status,,131640542092,1214317642003,1,,
Status,,381305585288,701529335025,1,,
Status,,311488750623,670465783021,1,,
Status,,381440355711,701536068025,0,,
Status,,380909135683,701537573025,1,,
Status,,381452236389,701540910025,1,,
Status,,140413704556,1256135987004,1,,
Status,208615828010,208615828010,,1,,
Status,,381276186187,701545923025,1,,
Status,,120912897733,1620605682002,1,,
Status,,140478542774,1256148830004,0,,
Status,,381443977426,701552196025,1,,
Status,,310692691096,670487168021,1,,
Status,,131678912631,1214351500003,0,,
Status,,131156430021,1214353976003,0,,
Status,,381579243288,701558971025,1,,
Status,,130971161341,1214352964003,1,,
Status,,310333612366,670496293021,1,,
Status,,131360418116,1214363497003,0,,
Status,,120587004658,1620635135002,1,,
Status,,131304679902,1214369029003,1,,
Status,,400148910566,539218876027,1,,
Status,,381565427093,701573888025,1,,
Status,,381463734481,701576736025,0,,
Status,,310267768342,670513538021,1,,
Status,,311585961929,670514130021,0,,
Status,,381443976037,701582484025,1,,
Status,,400148459910,539232793027,1,,
Status,,131558223925,1214394899003,1,,
Status,,311502383337,670525816021,0,,
Status,,310838100657,670530529021,0,,
Status,,131337119087,1214406945003,0,,
Status,,311436841090,670535577021,1,,
Status,,131205905562,1214409004003,1,,
Status,,310087281728,670540803021,1,,
Status,,131392388312,1214416905003,1,,
Status,,311557220732,670542304021,1,,
Status,208629367010,208629367010,,1,,
Status,,311413119917,670553783021,1,,
Status,,310378895155,670554330021,1,,
Status,,381005639450,701624698025,1,,
Status,,310245542252,670557408021,1,,
Status,,310692691096,670565430021,1,,
Status,,310692691214,670567035021,1,,
Status,208633104010,208633104010,,1,,
Status,,310888209554,670572487021,1,,
Status,,381492948385,701644346025,1,,
Status,,311482436036,670574497021,1,,
Status,,131731029047,1214461825003,1,,
Status,,131376432978,1214463589003,1,,
Status,,140270671174,1256276699004,1,,
Status,,131143433548,1214468011003,1,,
Status,,310275236415,670581341021,1,,
Status,,310228799833,670581851021,1,,
Status,,140476842653,1256284264004,1,,
Status,,311550385777,670587477021,0,,
Status,,131671221005,1214476824003,1,,
Status,,131337119087,1214478001003,0,,
Status,,311474801974,670588776021,1,,
Status,,310932498793,670591282021,1,,
Status,,310376884872,670593217021,1,,
Status,,311545897585,670594790021,1,,
Status,,380866491580,701670297025,1,,
Status,,311514454957,670597653021,1,,
Status,,311464815941,670597673021,1,,
Status,,381039051729,701671135025,1,,
Status,,310087279967,670597912021,1,,
Status,,140419597929,1256303367004,1,,
Status,,380805378011,701672303025,0,,
Status,,381205113004,701673181025,1,,
Status,,380918580709,701678375025,1,,
Status,,131091004722,1214498073003,1,,
Status,,131660305376,1214498330003,1,,
Status,,381579243381,701679592025,1,,
Status,,131467104832,1214499573003,1,,
Status,,381116882630,701684182025,1,,
Status,,131063001651,1214504321003,1,,
Status,,131700241658,1214509166003,1,,
Status,,381594950926,701688701025,1,,
Status,,310918384973,670613556021,1,,
Status,,311113565626,670615275021,0,,
Status,,311479472516,670615672021,1,,
Status,,311403865637,670616021021,0,,
Status,,380812465276,701692694025,0,,
Status,,131088011131,1214514005003,0,,
Status,,381554859561,701694264025,1,,
Status,,311472699998,670620106021,1,,
Status,,310895563683,670622875021,1,,
Status,208642406010,208642406010,,1,,
Status,,380931031306,701699428025,1,,
Status,,131305933202,1214532768003,1,,
Status,,131156430121,1214534280003,1,,
Status,,311535206968,670638534021,0,,
Status,,131736677801,1214545806003,0,,
Status,,310333598764,670652912021,1,,
Status,,310233074049,670677873021,0,,
Status,,131607031300,1214597031003,1,,
Status,,311539226519,670680939021,1,,
Status,,311474799304,670683364021,0,,
Status,,311474799304,670684103021,0,,
Status,,140473899884,1256423989004,1,,
Status,,311325543085,670684819021,1,,
Status,,131249010912,1214613210003,1,,
